[
  {
    "Id": 1,
    "orderNumber": "SP2024001",
    "status": "in-transit",
    "pickupAddress": {
      "name": "TechMart Store",
      "street": "123 Oxford Street",
      "city": "London",
      "postcode": "W1D 2HX",
      "coordinates": { "lat": 51.5154, "lng": -0.1423 }
    },
    "deliveryAddress": {
      "name": "Sarah Johnson",
      "street": "45 Baker Street",
      "city": "London",
      "postcode": "NW1 6XE",
      "coordinates": { "lat": 51.5196, "lng": -0.1577 }
    },
    "courier": {
      "id": 1,
      "name": "James Wilson",
      "vehicleType": "Bike"
    },
    "createdAt": "2024-01-15T09:30:00Z",
    "estimatedDelivery": "2024-01-15T11:30:00Z",
    "actualDelivery": null,
    "package": {
      "weight": 2.5,
      "dimensions": "30x20x10cm",
      "type": "Electronics"
    }
  },
  {
    "Id": 2,
    "orderNumber": "SP2024002",
    "status": "delivered",
    "pickupAddress": {
      "name": "Fashion Hub",
      "street": "78 Regent Street",
      "city": "London",
      "postcode": "W1B 5AH",
      "coordinates": { "lat": 51.5117, "lng": -0.1421 }
    },
    "deliveryAddress": {
      "name": "Michael Chen",
      "street": "92 Canary Wharf",
      "city": "London",
      "postcode": "E14 5AB",
      "coordinates": { "lat": 51.5054, "lng": -0.0235 }
    },
    "courier": {
      "id": 2,
      "name": "Emma Davis",
      "vehicleType": "Van"
    },
    "createdAt": "2024-01-15T08:15:00Z",
    "estimatedDelivery": "2024-01-15T10:15:00Z",
    "actualDelivery": "2024-01-15T10:05:00Z",
    "package": {
      "weight": 1.2,
      "dimensions": "25x15x8cm",
      "type": "Clothing"
    }
  },
  {
    "Id": 3,
    "orderNumber": "SP2024003",
    "status": "pending",
    "pickupAddress": {
      "name": "BookWorld",
      "street": "156 Piccadilly",
      "city": "London",
      "postcode": "W1J 9EB",
      "coordinates": { "lat": 51.5074, "lng": -0.1431 }
    },
    "deliveryAddress": {
      "name": "Lisa Thompson",
      "street": "23 Kensington High Street",
      "city": "London",
      "postcode": "W8 6NW",
      "coordinates": { "lat": 51.5007, "lng": -0.1924 }
    },
    "courier": null,
    "createdAt": "2024-01-15T10:45:00Z",
    "estimatedDelivery": "2024-01-15T13:45:00Z",
    "actualDelivery": null,
    "package": {
      "weight": 0.8,
      "dimensions": "20x15x5cm",
      "type": "Books"
    }
  },
  {
    "Id": 4,
    "orderNumber": "SP2024004",
    "status": "assigned",
    "pickupAddress": {
      "name": "ElectroShop",
      "street": "67 Tottenham Court Road",
      "city": "London",
      "postcode": "W1T 2HG",
      "coordinates": { "lat": 51.5168, "lng": -0.1342 }
    },
    "deliveryAddress": {
      "name": "David Rodriguez",
      "street": "89 London Bridge Street",
      "city": "London",
      "postcode": "SE1 9SG",
      "coordinates": { "lat": 51.5045, "lng": -0.0865 }
    },
    "courier": {
      "id": 3,
      "name": "Alex Parker",
      "vehicleType": "Motorbike"
    },
    "createdAt": "2024-01-15T11:20:00Z",
    "estimatedDelivery": "2024-01-15T13:20:00Z",
    "actualDelivery": null,
    "package": {
      "weight": 3.1,
      "dimensions": "35x25x12cm",
      "type": "Electronics"
    }
  },
  {
    "Id": 5,
    "orderNumber": "SP2024005",
    "status": "failed",
    "pickupAddress": {
      "name": "HomeDecor Plus",
      "street": "34 King's Road",
      "city": "London",
      "postcode": "SW3 4UD",
      "coordinates": { "lat": 51.4884, "lng": -0.1629 }
    },
    "deliveryAddress": {
      "name": "Jennifer White",
      "street": "12 Greenwich High Road",
      "city": "London",
      "postcode": "SE10 8JL",
      "coordinates": { "lat": 51.4823, "lng": 0.0062 }
    },
    "courier": {
      "id": 1,
      "name": "James Wilson",
      "vehicleType": "Bike"
    },
    "createdAt": "2024-01-15T07:30:00Z",
    "estimatedDelivery": "2024-01-15T09:30:00Z",
    "actualDelivery": null,
    "package": {
      "weight": 4.5,
      "dimensions": "40x30x15cm",
      "type": "Home & Garden"
    }
  },
  {
    "Id": 6,
    "orderNumber": "SP2024006",
    "status": "in-transit",
    "pickupAddress": {
      "name": "SportGear Central",
      "street": "91 Camden High Street",
      "city": "London",
      "postcode": "NW1 7JN",
      "coordinates": { "lat": 51.5392, "lng": -0.1426 }
    },
    "deliveryAddress": {
      "name": "Robert Taylor",
      "street": "56 Shoreditch High Street",
      "city": "London",
      "postcode": "E1 6JJ",
      "coordinates": { "lat": 51.5225, "lng": -0.0775 }
    },
    "courier": {
      "id": 4,
      "name": "Sophie Brown",
      "vehicleType": "Van"
    },
    "createdAt": "2024-01-15T10:15:00Z",
    "estimatedDelivery": "2024-01-15T12:15:00Z",
    "actualDelivery": null,
    "package": {
      "weight": 6.2,
      "dimensions": "50x40x20cm",
      "type": "Sports Equipment"
    }
  }
]